{"fullgameschedule":{"lastUpdatedOn":"2018-01-06 8:59:35 AM","gameentry":[{"id":"42647","date":"2018-01-06","time":"3:30PM","awayTeam":{"ID":"101","City":"Golden State","Name":"Warriors","Abbreviation":"GSW"},"homeTeam":{"ID":"102","City":"Los Angeles","Name":"Clippers","Abbreviation":"LAC"},"location":"Staples Center"},{"id":"42648","date":"2018-01-06","time":"6:00PM","awayTeam":{"ID":"82","City":"Boston","Name":"Celtics","Abbreviation":"BOS"},"homeTeam":{"ID":"84","City":"Brooklyn","Name":"Nets","Abbreviation":"BRO"},"location":"Barclays Center"},{"id":"42649","date":"2018-01-06","time":"7:00PM","awayTeam":{"ID":"109","City":"Houston","Name":"Rockets","Abbreviation":"HOU"},"homeTeam":{"ID":"88","City":"Detroit","Name":"Pistons","Abbreviation":"DET"},"location":"The Palace of Auburn Hills"},{"id":"42650","date":"2018-01-06","time":"7:00PM","awayTeam":{"ID":"86","City":"Cleveland","Name":"Cavaliers","Abbreviation":"CLE"},"homeTeam":{"ID":"95","City":"Orlando","Name":"Magic","Abbreviation":"ORL"},"location":"Amway Center"},{"id":"42651","date":"2018-01-06","time":"7:00PM","awayTeam":{"ID":"89","City":"Chicago","Name":"Bulls","Abbreviation":"CHI"},"homeTeam":{"ID":"87","City":"Indiana","Name":"Pacers","Abbreviation":"IND"},"location":"Bankers Life Fieldhouse"},{"id":"42652","date":"2018-01-06","time":"8:00PM","awayTeam":{"ID":"90","City":"Milwaukee","Name":"Bucks","Abbreviation":"MIL"},"homeTeam":{"ID":"94","City":"Washington","Name":"Wizards","Abbreviation":"WAS"},"location":"Capital One Arena"},{"id":"42653","date":"2018-01-06","time":"9:00PM","awayTeam":{"ID":"110","City":"New Orleans","Name":"Pelicans","Abbreviation":"NOP"},"homeTeam":{"ID":"100","City":"Minnesota","Name":"Timberwolves","Abbreviation":"MIN"},"location":"Target Center"},{"id":"42654","date":"2018-01-06","time":"10:00PM","awayTeam":{"ID":"99","City":"Denver","Name":"Nuggets","Abbreviation":"DEN"},"homeTeam":{"ID":"103","City":"Sacramento","Name":"Kings","Abbreviation":"SAC"},"location":"Sleep Train Arena"}]}}